{"kafka.header.matchId":"31dd8827-54e6-40ad-a925-51d45bdfedd3","EXPR$1":"2287139","FrameData":"[{\"BallPosition\":[{\"BallContactInfo\":\"\",\"BallOwningTeam\":\"A\",\"BallStatus\":\"Dead\",\"Speed\":4.843562738315671,\"X\":13.62,\"Y\":-1991.5,\"Z\":13},{\"BallContactInfo\":\"\",\"BallOwningTeam\":\"A\",\"BallStatus\":\"Dead\",\"Speed\":0,\"X\":0,\"Y\":0,\"Z\":0},{\"BallContactInfo\":\"\",\"BallOwningTeam\":\"A\",\"BallStatus\":\"Dead\",\"Speed\":0,\"X\":0,\"Y\":0,\"Z\":0},{\"BallContactInfo\":\"\",\"BallOwningTeam\":\"A\",\"BallStatus\":\"Dead\",\"Speed\":0,\"X\":0,\"Y\":0,\"Z\":0},{\"BallContactInfo\":\"\",\"BallOwningTeam\":\"A\",\"BallStatus\":\"Dead\",\"Speed\":0,\"X\":0,\"Y\":0,\"Z\":0}],\"PlayerPositions\":[{\"JerseyNumber\":20,\"Speed\":1.08,\"Team\":1,\"X\":2267.73,\"Y\":2204.125},{\"JerseyNumber\":10,\"Speed\":3.6,\"Team\":1,\"X\":1997.6,\"Y\":-1077.125},{\"JerseyNumber\":17,\"Speed\":1.22,\"Team\":1,\"X\":-524.37,\"Y\":778.75},{\"JerseyNumber\":5,\"Speed\":1.93,\"Team\":0,\"X\":2410.74,\"Y\":352.625},{\"JerseyNumber\":91,\"Speed\":1.74,\"Team\":0,\"X\":661.705,\"Y\":-166.25},{\"JerseyNumber\":0,\"Speed\":1.96,\"Team\":3,\"X\":1510.685,\"Y\":273.875},{\"JerseyNumber\":1,\"Speed\":0.69,\"Team\":0,\"X\":4553.62,\"Y\":-129.5},{\"JerseyNumber\":13,\"Speed\":3.82,\"Team\":0,\"X\":1893.18,\"Y\":-2432.5},{\"JerseyNumber\":23,\"Speed\":1.55,\"Team\":0,\"X\":1243.96,\"Y\":1554},{\"JerseyNumber\":22,\"Speed\":0.12,\"Team\":1,\"X\":-60.155,\"Y\":-1927.625},{\"JerseyNumber\":19,\"Speed\":1.43,\"Team\":1,\"X\":1234.88,\"Y\":836.5},{\"JerseyNumber\":0,\"Speed\":0,\"Team\":4,\"X\":5675,\"Y\":4375},{\"JerseyNumber\":25,\"Speed\":2.4,\"Team\":1,\"X\":-601.55,\"Y\":-947.625},{\"JerseyNumber\":2,\"Speed\":0.15,\"Team\":3,\"X\":-550.475,\"Y\":3414.25},{\"JerseyNumber\":0,\"Speed\":2.68,\"Team\":-1,\"X\":5168.79,\"Y\":3636.5},{\"JerseyNumber\":4,\"Speed\":1.77,\"Team\":0,\"X\":2416.415,\"Y\":-683.375},{\"JerseyNumber\":97,\"Speed\":4.44,\"Team\":0,\"X\":1663.91,\"Y\":-920.5},{\"JerseyNumber\":1,\"Speed\":0.64,\"Team\":3,\"X\":2477.705,\"Y\":-3502.625},{\"JerseyNumber\":0,\"Speed\":0,\"Team\":4,\"X\":5675,\"Y\":4375},{\"JerseyNumber\":27,\"Speed\":1.86,\"Team\":0,\"X\":2377.825,\"Y\":1446.375},{\"JerseyNumber\":9,\"Speed\":3.69,\"Team\":0,\"X\":-228.135,\"Y\":-610.75},{\"JerseyNumber\":14,\"Speed\":1.7,\"Team\":0,\"X\":1127.055,\"Y\":890.75},{\"JerseyNumber\":31,\"Speed\":1,\"Team\":1,\"X\":2395.985,\"Y\":821.625},{\"JerseyNumber\":20,\"Speed\":2.16,\"Team\":0,\"X\":685.54,\"Y\":-1643.25},{\"JerseyNumber\":30,\"Speed\":0.64,\"Team\":1,\"X\":-3345.98,\"Y\":19.25},{\"JerseyNumber\":29,\"Speed\":1.68,\"Team\":1,\"X\":915.945,\"Y\":2679.25},{\"JerseyNumber\":7,\"Speed\":1.93,\"Team\":1,\"X\":1215.585,\"Y\":-3098.375},{\"JerseyNumber\":14,\"Speed\":2.34,\"Team\":1,\"X\":551.61,\"Y\":58.625}],\"FrameCount\":2287139,\"Phase\":2,\"GameRunning\":true}]"}
{"kafka.header.matchId":"31dd8827-54e6-40ad-a925-51d45bdfedd3","EXPR$1":"2287140","FrameData":"[{\"BallPosition\":[{\"BallContactInfo\":\"\",\"BallOwningTeam\":\"A\",\"BallStatus\":\"Dead\",\"Speed\":5.052177748258665,\"X\":23.835,\"Y\":-2002,\"Z\":13},{\"BallContactInfo\":\"\",\"BallOwningTeam\":\"A\",\"BallStatus\":\"Dead\",\"Speed\":0,\"X\":0,\"Y\":0,\"Z\":0},{\"BallContactInfo\":\"\",\"BallOwningTeam\":\"A\",\"BallStatus\":\"Dead\",\"Speed\":0,\"X\":0,\"Y\":0,\"Z\":0},{\"BallContactInfo\":\"\",\"BallOwningTeam\":\"A\",\"BallStatus\":\"Dead\",\"Speed\":0,\"X\":0,\"Y\":0,\"Z\":0},{\"BallContactInfo\":\"\",\"BallOwningTeam\":\"A\",\"BallStatus\":\"Dead\",\"Speed\":0,\"X\":0,\"Y\":0,\"Z\":0}],\"PlayerPositions\":[{\"JerseyNumber\":20,\"Speed\":1.09,\"Team\":1,\"X\":2268.865,\"Y\":2200.625},{\"JerseyNumber\":10,\"Speed\":3.58,\"Team\":1,\"X\":2007.815,\"Y\":-1080.625},{\"JerseyNumber\":17,\"Speed\":1.22,\"Team\":1,\"X\":-523.235,\"Y\":774.375},{\"JerseyNumber\":5,\"Speed\":1.89,\"Team\":0,\"X\":2414.145,\"Y\":349.125},{\"JerseyNumber\":91,\"Speed\":1.78,\"Team\":0,\"X\":657.165,\"Y\":-169.75},{\"JerseyNumber\":0,\"Speed\":1.99,\"Team\":3,\"X\":1508.415,\"Y\":266.875},{\"JerseyNumber\":1,\"Speed\":0.68,\"Team\":0,\"X\":4555.89,\"Y\":-126.875},{\"JerseyNumber\":13,\"Speed\":3.84,\"Team\":0,\"X\":1880.695,\"Y\":-2436.875},{\"JerseyNumber\":23,\"Speed\":1.52,\"Team\":0,\"X\":1245.095,\"Y\":1549.625},{\"JerseyNumber\":22,\"Speed\":0.15,\"Team\":1,\"X\":-56.75,\"Y\":-1932.875},{\"JerseyNumber\":19,\"Speed\":1.46,\"Team\":1,\"X\":1238.285,\"Y\":833},{\"JerseyNumber\":0,\"Speed\":0,\"Team\":4,\"X\":5675,\"Y\":4375},{\"JerseyNumber\":25,\"Speed\":2.39,\"Team\":1,\"X\":-609.495,\"Y\":-949.375},{\"JerseyNumber\":2,\"Speed\":0.15,\"Team\":3,\"X\":-549.34,\"Y\":3415.125},{\"JerseyNumber\":0,\"Speed\":2.68,\"Team\":-1,\"X\":5160.845,\"Y\":3635.625},{\"JerseyNumber\":4,\"Speed\":1.79,\"Team\":0,\"X\":2419.82,\"Y\":-688.625},{\"JerseyNumber\":97,\"Speed\":4.49,\"Team\":0,\"X\":1671.855,\"Y\":-934.5},{\"JerseyNumber\":1,\"Speed\":0.67,\"Team\":3,\"X\":2481.11,\"Y\":-3502.625},{\"JerseyNumber\":0,\"Speed\":0,\"Team\":4,\"X\":5675,\"Y\":4375},{\"JerseyNumber\":27,\"Speed\":1.86,\"Team\":0,\"X\":2375.555,\"Y\":1440.25},{\"JerseyNumber\":9,\"Speed\":3.66,\"Team\":0,\"X\":-234.945,\"Y\":-619.5},{\"JerseyNumber\":14,\"Speed\":1.72,\"Team\":0,\"X\":1129.325,\"Y\":883.75},{\"JerseyNumber\":31,\"Speed\":0.99,\"Team\":1,\"X\":2395.985,\"Y\":818.125},{\"JerseyNumber\":20,\"Speed\":2.1,\"Team\":0,\"X\":685.54,\"Y\":-1650.25},{\"JerseyNumber\":30,\"Speed\":0.6,\"Team\":1,\"X\":-3345.98,\"Y\":17.5},{\"JerseyNumber\":29,\"Speed\":1.68,\"Team\":1,\"X\":913.675,\"Y\":2673.125},{\"JerseyNumber\":7,\"Speed\":1.96,\"Team\":1,\"X\":1209.91,\"Y\":-3101.875},{\"JerseyNumber\":14,\"Speed\":2.36,\"Team\":1,\"X\":545.935,\"Y\":52.5}],\"FrameCount\":2287140,\"Phase\":2,\"GameRunning\":true}]"}
{"kafka.header.matchId":"31dd8827-54e6-40ad-a925-51d45bdfedd3","EXPR$1":"2287141","FrameData":"[{\"BallPosition\":[{\"BallContactInfo\":\"\",\"BallOwningTeam\":\"A\",\"BallStatus\":\"Dead\",\"Speed\":3.4875349460614724,\"X\":26.105,\"Y\":-2010.75,\"Z\":15},{\"BallContactInfo\":\"\",\"BallOwningTeam\":\"A\",\"BallStatus\":\"Dead\",\"Speed\":0,\"X\":0,\"Y\":0,\"Z\":0},{\"BallContactInfo\":\"\",\"BallOwningTeam\":\"A\",\"BallStatus\":\"Dead\",\"Speed\":0,\"X\":0,\"Y\":0,\"Z\":0},{\"BallContactInfo\":\"\",\"BallOwningTeam\":\"A\",\"BallStatus\":\"Dead\",\"Speed\":0,\"X\":0,\"Y\":0,\"Z\":0},{\"BallContactInfo\":\"\",\"BallOwningTeam\":\"A\",\"BallStatus\":\"Dead\",\"Speed\":0,\"X\":0,\"Y\":0,\"Z\":0}],\"PlayerPositions\":[{\"JerseyNumber\":20,\"Speed\":1.09,\"Team\":1,\"X\":2270,\"Y\":2197.125},{\"JerseyNumber\":10,\"Speed\":3.53,\"Team\":1,\"X\":2016.895,\"Y\":-1084.125},{\"JerseyNumber\":17,\"Speed\":1.22,\"Team\":1,\"X\":-522.1,\"Y\":770.875},{\"JerseyNumber\":5,\"Speed\":1.84,\"Team\":0,\"X\":2418.685,\"Y\":344.75},{\"JerseyNumber\":91,\"Speed\":1.82,\"Team\":0,\"X\":651.49,\"Y\":-174.125},{\"JerseyNumber\":0,\"Speed\":2,\"Team\":3,\"X\":1506.145,\"Y\":259.875},{\"JerseyNumber\":1,\"Speed\":0.68,\"Team\":0,\"X\":4558.16,\"Y\":-125.125},{\"JerseyNumber\":13,\"Speed\":3.84,\"Team\":0,\"X\":1870.48,\"Y\":-2440.375},{\"JerseyNumber\":23,\"Speed\":1.52,\"Team\":0,\"X\":1246.23,\"Y\":1545.25},{\"JerseyNumber\":22,\"Speed\":0.24,\"Team\":1,\"X\":-53.345,\"Y\":-1938.125},{\"JerseyNumber\":19,\"Speed\":1.49,\"Team\":1,\"X\":1241.69,\"Y\":829.5},{\"JerseyNumber\":0,\"Speed\":0,\"Team\":4,\"X\":5675,\"Y\":4375},{\"JerseyNumber\":25,\"Speed\":2.35,\"Team\":1,\"X\":-616.305,\"Y\":-951.125},{\"JerseyNumber\":2,\"Speed\":0.24,\"Team\":3,\"X\":-548.205,\"Y\":3415.125},{\"JerseyNumber\":0,\"Speed\":2.64,\"Team\":-1,\"X\":5157.44,\"Y\":3633.875},{\"JerseyNumber\":4,\"Speed\":1.79,\"Team\":0,\"X\":2422.09,\"Y\":-694.75},{\"JerseyNumber\":97,\"Speed\":4.53,\"Team\":0,\"X\":1679.8,\"Y\":-948.5},{\"JerseyNumber\":1,\"Speed\":0.74,\"Team\":3,\"X\":2484.515,\"Y\":-3502.625},{\"JerseyNumber\":0,\"Speed\":0,\"Team\":4,\"X\":5675,\"Y\":4375},{\"JerseyNumber\":27,\"Speed\":1.87,\"Team\":0,\"X\":2373.285,\"Y\":1435},{\"JerseyNumber\":9,\"Speed\":3.65,\"Team\":0,\"X\":-242.89,\"Y\":-629.125},{\"JerseyNumber\":14,\"Speed\":1.76,\"Team\":0,\"X\":1130.46,\"Y\":877.625},{\"JerseyNumber\":31,\"Speed\":0.96,\"Team\":1,\"X\":2397.12,\"Y\":815.5},{\"JerseyNumber\":20,\"Speed\":2.08,\"Team\":0,\"X\":686.675,\"Y\":-1658.125},{\"JerseyNumber\":30,\"Speed\":0.6,\"Team\":1,\"X\":-3344.845,\"Y\":16.625},{\"JerseyNumber\":29,\"Speed\":1.7,\"Team\":1,\"X\":911.405,\"Y\":2667.875},{\"JerseyNumber\":7,\"Speed\":1.97,\"Team\":1,\"X\":1203.1,\"Y\":-3104.5},{\"JerseyNumber\":14,\"Speed\":2.38,\"Team\":1,\"X\":540.26,\"Y\":45.5}],\"FrameCount\":2287141,\"Phase\":2,\"GameRunning\":true}]"}
{"kafka.header.matchId":"31dd8827-54e6-40ad-a925-51d45bdfedd3","EXPR$1":"2287142","FrameData":"[{\"BallPosition\":[{\"BallContactInfo\":\"\",\"BallOwningTeam\":\"A\",\"BallStatus\":\"Dead\",\"Speed\":3.477139629062946,\"X\":34.05,\"Y\":-2023,\"Z\":16},{\"BallContactInfo\":\"\",\"BallOwningTeam\":\"A\",\"BallStatus\":\"Dead\",\"Speed\":0,\"X\":0,\"Y\":0,\"Z\":0},{\"BallContactInfo\":\"\",\"BallOwningTeam\":\"A\",\"BallStatus\":\"Dead\",\"Speed\":0,\"X\":0,\"Y\":0,\"Z\":0},{\"BallContactInfo\":\"\",\"BallOwningTeam\":\"A\",\"BallStatus\":\"Dead\",\"Speed\":0,\"X\":0,\"Y\":0,\"Z\":0},{\"BallContactInfo\":\"\",\"BallOwningTeam\":\"A\",\"BallStatus\":\"Dead\",\"Speed\":0,\"X\":0,\"Y\":0,\"Z\":0}],\"PlayerPositions\":[{\"JerseyNumber\":20,\"Speed\":1.09,\"Team\":1,\"X\":2271.135,\"Y\":2194.5},{\"JerseyNumber\":10,\"Speed\":3.49,\"Team\":1,\"X\":2027.11,\"Y\":-1086.75},{\"JerseyNumber\":17,\"Speed\":1.2,\"Team\":1,\"X\":-519.83,\"Y\":767.375},{\"JerseyNumber\":5,\"Speed\":1.82,\"Team\":0,\"X\":2422.09,\"Y\":341.25},{\"JerseyNumber\":91,\"Speed\":1.87,\"Team\":0,\"X\":644.68,\"Y\":-178.5},{\"JerseyNumber\":0,\"Speed\":2,\"Team\":3,\"X\":1505.01,\"Y\":253.75},{\"JerseyNumber\":1,\"Speed\":0.69,\"Team\":0,\"X\":4560.43,\"Y\":-124.25},{\"JerseyNumber\":13,\"Speed\":3.84,\"Team\":0,\"X\":1859.13,\"Y\":-2443},{\"JerseyNumber\":23,\"Speed\":1.56,\"Team\":0,\"X\":1247.365,\"Y\":1540},{\"JerseyNumber\":22,\"Speed\":0.35,\"Team\":1,\"X\":-49.94,\"Y\":-1944.25},{\"JerseyNumber\":19,\"Speed\":1.52,\"Team\":1,\"X\":1245.095,\"Y\":826},{\"JerseyNumber\":0,\"Speed\":0,\"Team\":4,\"X\":5675,\"Y\":4375},{\"JerseyNumber\":25,\"Speed\":2.35,\"Team\":1,\"X\":-623.115,\"Y\":-952},{\"JerseyNumber\":2,\"Speed\":0.34,\"Team\":3,\"X\":-547.07,\"Y\":3415.125},{\"JerseyNumber\":0,\"Speed\":2.55,\"Team\":-1,\"X\":5152.9,\"Y\":3633.875},{\"JerseyNumber\":4,\"Speed\":1.79,\"Team\":0,\"X\":2424.36,\"Y\":-700},{\"JerseyNumber\":97,\"Speed\":4.58,\"Team\":0,\"X\":1687.745,\"Y\":-962.5},{\"JerseyNumber\":1,\"Speed\":0.79,\"Team\":3,\"X\":2487.92,\"Y\":-3503.5},{\"JerseyNumber\":0,\"Speed\":0,\"Team\":4,\"X\":5675,\"Y\":4375},{\"JerseyNumber\":27,\"Speed\":1.89,\"Team\":0,\"X\":2369.88,\"Y\":1428.875},{\"JerseyNumber\":9,\"Speed\":3.59,\"Team\":0,\"X\":-249.7,\"Y\":-637.875},{\"JerseyNumber\":14,\"Speed\":1.77,\"Team\":0,\"X\":1132.73,\"Y\":872.375},{\"JerseyNumber\":31,\"Speed\":0.97,\"Team\":1,\"X\":2398.255,\"Y\":811.125},{\"JerseyNumber\":20,\"Speed\":2.08,\"Team\":0,\"X\":687.81,\"Y\":-1667.75},{\"JerseyNumber\":30,\"Speed\":0.57,\"Team\":1,\"X\":-3343.71,\"Y\":14.875},{\"JerseyNumber\":29,\"Speed\":1.68,\"Team\":1,\"X\":910.27,\"Y\":2662.625},{\"JerseyNumber\":7,\"Speed\":2,\"Team\":1,\"X\":1196.29,\"Y\":-3107.125},{\"JerseyNumber\":14,\"Speed\":2.38,\"Team\":1,\"X\":535.72,\"Y\":39.375}],\"FrameCount\":2287142,\"Phase\":2,\"GameRunning\":true}]"}
{"kafka.header.matchId":"31dd8827-54e6-40ad-a925-51d45bdfedd3","EXPR$1":"2287143","FrameData":"[{\"BallPosition\":[{\"BallContactInfo\":\"\",\"BallOwningTeam\":\"A\",\"BallStatus\":\"Dead\",\"Speed\":3.7594946468907224,\"X\":40.86,\"Y\":-2030.875,\"Z\":15},{\"BallContactInfo\":\"\",\"BallOwningTeam\":\"A\",\"BallStatus\":\"Dead\",\"Speed\":0,\"X\":0,\"Y\":0,\"Z\":0},{\"BallContactInfo\":\"\",\"BallOwningTeam\":\"A\",\"BallStatus\":\"Dead\",\"Speed\":0,\"X\":0,\"Y\":0,\"Z\":0},{\"BallContactInfo\":\"\",\"BallOwningTeam\":\"A\",\"BallStatus\":\"Dead\",\"Speed\":0,\"X\":0,\"Y\":0,\"Z\":0},{\"BallContactInfo\":\"\",\"BallOwningTeam\":\"A\",\"BallStatus\":\"Dead\",\"Speed\":0,\"X\":0,\"Y\":0,\"Z\":0}],\"PlayerPositions\":[{\"JerseyNumber\":20,\"Speed\":1.1,\"Team\":1,\"X\":2272.27,\"Y\":2191},{\"JerseyNumber\":10,\"Speed\":3.43,\"Team\":1,\"X\":2037.325,\"Y\":-1089.375},{\"JerseyNumber\":17,\"Speed\":1.19,\"Team\":1,\"X\":-517.56,\"Y\":763.875},{\"JerseyNumber\":5,\"Speed\":1.8,\"Team\":0,\"X\":2426.63,\"Y\":336.875},{\"JerseyNumber\":91,\"Speed\":1.93,\"Team\":0,\"X\":639.005,\"Y\":-183.75},{\"JerseyNumber\":0,\"Speed\":2,\"Team\":3,\"X\":1502.74,\"Y\":246.75},{\"JerseyNumber\":1,\"Speed\":0.69,\"Team\":0,\"X\":4562.7,\"Y\":-124.25},{\"JerseyNumber\":13,\"Speed\":3.83,\"Team\":0,\"X\":1847.78,\"Y\":-2446.5},{\"JerseyNumber\":23,\"Speed\":1.56,\"Team\":0,\"X\":1249.635,\"Y\":1534.75},{\"JerseyNumber\":22,\"Speed\":0.47,\"Team\":1,\"X\":-46.535,\"Y\":-1950.375},{\"JerseyNumber\":19,\"Speed\":1.52,\"Team\":1,\"X\":1248.5,\"Y\":822.5},{\"JerseyNumber\":0,\"Speed\":0,\"Team\":4,\"X\":5675,\"Y\":4375},{\"JerseyNumber\":25,\"Speed\":2.31,\"Team\":1,\"X\":-628.79,\"Y\":-953.75},{\"JerseyNumber\":2,\"Speed\":0.34,\"Team\":3,\"X\":-545.935,\"Y\":3415.125},{\"JerseyNumber\":0,\"Speed\":2.55,\"Team\":-1,\"X\":5151.765,\"Y\":3635.625},{\"JerseyNumber\":4,\"Speed\":1.79,\"Team\":0,\"X\":2426.63,\"Y\":-705.25},{\"JerseyNumber\":97,\"Speed\":4.64,\"Team\":0,\"X\":1695.69,\"Y\":-976.5},{\"JerseyNumber\":1,\"Speed\":0.79,\"Team\":3,\"X\":2490.19,\"Y\":-3503.5},{\"JerseyNumber\":0,\"Speed\":0,\"Team\":4,\"X\":5675,\"Y\":4375},{\"JerseyNumber\":27,\"Speed\":1.87,\"Team\":0,\"X\":2367.61,\"Y\":1423.625},{\"JerseyNumber\":9,\"Speed\":3.56,\"Team\":0,\"X\":-256.51,\"Y\":-647.5},{\"JerseyNumber\":14,\"Speed\":1.8,\"Team\":0,\"X\":1135,\"Y\":866.25},{\"JerseyNumber\":31,\"Speed\":0.99,\"Team\":1,\"X\":2398.255,\"Y\":807.625},{\"JerseyNumber\":20,\"Speed\":2.08,\"Team\":0,\"X\":688.945,\"Y\":-1677.375},{\"JerseyNumber\":30,\"Speed\":0.6,\"Team\":1,\"X\":-3342.575,\"Y\":13.125},{\"JerseyNumber\":29,\"Speed\":1.68,\"Team\":1,\"X\":908,\"Y\":2657.375},{\"JerseyNumber\":7,\"Speed\":2,\"Team\":1,\"X\":1189.48,\"Y\":-3110.625},{\"JerseyNumber\":14,\"Speed\":2.41,\"Team\":1,\"X\":530.045,\"Y\":32.375}],\"FrameCount\":2287143,\"Phase\":2,\"GameRunning\":true}]"}
{"kafka.header.matchId":"31dd8827-54e6-40ad-a925-51d45bdfedd3","EXPR$1":"2287144","FrameData":"[{\"BallPosition\":[{\"BallContactInfo\":\"\",\"BallOwningTeam\":\"A\",\"BallStatus\":\"Dead\",\"Speed\":3.470129680573912,\"X\":46.535,\"Y\":-2042.25,\"Z\":15},{\"BallContactInfo\":\"\",\"BallOwningTeam\":\"A\",\"BallStatus\":\"Dead\",\"Speed\":0,\"X\":0,\"Y\":0,\"Z\":0},{\"BallContactInfo\":\"\",\"BallOwningTeam\":\"A\",\"BallStatus\":\"Dead\",\"Speed\":0,\"X\":0,\"Y\":0,\"Z\":0},{\"BallContactInfo\":\"\",\"BallOwningTeam\":\"A\",\"BallStatus\":\"Dead\",\"Speed\":0,\"X\":0,\"Y\":0,\"Z\":0},{\"BallContactInfo\":\"\",\"BallOwningTeam\":\"A\",\"BallStatus\":\"Dead\",\"Speed\":0,\"X\":0,\"Y\":0,\"Z\":0}],\"PlayerPositions\":[{\"JerseyNumber\":20,\"Speed\":1.1,\"Team\":1,\"X\":2273.405,\"Y\":2186.625},{\"JerseyNumber\":10,\"Speed\":3.39,\"Team\":1,\"X\":2047.54,\"Y\":-1091.125},{\"JerseyNumber\":17,\"Speed\":1.23,\"Team\":1,\"X\":-516.425,\"Y\":759.5},{\"JerseyNumber\":5,\"Speed\":1.78,\"Team\":0,\"X\":2431.17,\"Y\":333.375},{\"JerseyNumber\":91,\"Speed\":1.99,\"Team\":0,\"X\":633.33,\"Y\":-189},{\"JerseyNumber\":0,\"Speed\":2,\"Team\":3,\"X\":1501.605,\"Y\":240.625},{\"JerseyNumber\":1,\"Speed\":0.7,\"Team\":0,\"X\":4564.97,\"Y\":-123.375},{\"JerseyNumber\":13,\"Speed\":3.8,\"Team\":0,\"X\":1837.565,\"Y\":-2450},{\"JerseyNumber\":23,\"Speed\":1.6,\"Team\":0,\"X\":1250.77,\"Y\":1529.5},{\"JerseyNumber\":22,\"Speed\":0.75,\"Team\":1,\"X\":-43.13,\"Y\":-1957.375},{\"JerseyNumber\":19,\"Speed\":1.55,\"Team\":1,\"X\":1251.905,\"Y\":818.125},{\"JerseyNumber\":0,\"Speed\":0,\"Team\":4,\"X\":5675,\"Y\":4375},{\"JerseyNumber\":25,\"Speed\":2.3,\"Team\":1,\"X\":-635.6,\"Y\":-955.5},{\"JerseyNumber\":2,\"Speed\":0.34,\"Team\":3,\"X\":-545.935,\"Y\":3416},{\"JerseyNumber\":0,\"Speed\":2.35,\"Team\":-1,\"X\":5150.63,\"Y\":3634.75},{\"JerseyNumber\":4,\"Speed\":1.79,\"Team\":0,\"X\":2428.9,\"Y\":-710.5},{\"JerseyNumber\":97,\"Speed\":4.68,\"Team\":0,\"X\":1703.635,\"Y\":-990.5},{\"JerseyNumber\":1,\"Speed\":0.79,\"Team\":3,\"X\":2492.46,\"Y\":-3504.375},{\"JerseyNumber\":0,\"Speed\":0,\"Team\":4,\"X\":5675,\"Y\":4375},{\"JerseyNumber\":27,\"Speed\":1.9,\"Team\":0,\"X\":2365.34,\"Y\":1417.5},{\"JerseyNumber\":9,\"Speed\":3.51,\"Team\":0,\"X\":-262.185,\"Y\":-657.125},{\"JerseyNumber\":14,\"Speed\":1.85,\"Team\":0,\"X\":1137.27,\"Y\":860.125},{\"JerseyNumber\":31,\"Speed\":0.96,\"Team\":1,\"X\":2399.39,\"Y\":805},{\"JerseyNumber\":20,\"Speed\":2.08,\"Team\":0,\"X\":690.08,\"Y\":-1687},{\"JerseyNumber\":30,\"Speed\":0.6,\"Team\":1,\"X\":-3340.305,\"Y\":11.375},{\"JerseyNumber\":29,\"Speed\":1.68,\"Team\":1,\"X\":905.73,\"Y\":2652.125},{\"JerseyNumber\":7,\"Speed\":2.05,\"Team\":1,\"X\":1182.67,\"Y\":-3115},{\"JerseyNumber\":14,\"Speed\":2.44,\"Team\":1,\"X\":524.37,\"Y\":26.25}],\"FrameCount\":2287144,\"Phase\":2,\"GameRunning\":true}]"}
{"kafka.header.matchId":"31dd8827-54e6-40ad-a925-51d45bdfedd3","EXPR$1":"2287145","FrameData":"[{\"BallPosition\":[{\"BallContactInfo\":\"\",\"BallOwningTeam\":\"A\",\"BallStatus\":\"Dead\",\"Speed\":3.120689026481171,\"X\":52.21,\"Y\":-2048.375,\"Z\":16},{\"BallContactInfo\":\"\",\"BallOwningTeam\":\"A\",\"BallStatus\":\"Dead\",\"Speed\":0,\"X\":0,\"Y\":0,\"Z\":0},{\"BallContactInfo\":\"\",\"BallOwningTeam\":\"A\",\"BallStatus\":\"Dead\",\"Speed\":0,\"X\":0,\"Y\":0,\"Z\":0},{\"BallContactInfo\":\"\",\"BallOwningTeam\":\"A\",\"BallStatus\":\"Dead\",\"Speed\":0,\"X\":0,\"Y\":0,\"Z\":0},{\"BallContactInfo\":\"\",\"BallOwningTeam\":\"A\",\"BallStatus\":\"Dead\",\"Speed\":0,\"X\":0,\"Y\":0,\"Z\":0}],\"PlayerPositions\":[{\"JerseyNumber\":20,\"Speed\":1.1,\"Team\":1,\"X\":2274.54,\"Y\":2183.125},{\"JerseyNumber\":10,\"Speed\":3.32,\"Team\":1,\"X\":2057.755,\"Y\":-1092},{\"JerseyNumber\":17,\"Speed\":1.24,\"Team\":1,\"X\":-515.29,\"Y\":755.125},{\"JerseyNumber\":5,\"Speed\":1.78,\"Team\":0,\"X\":2435.71,\"Y\":329},{\"JerseyNumber\":91,\"Speed\":2.05,\"Team\":0,\"X\":626.52,\"Y\":-194.25},{\"JerseyNumber\":0,\"Speed\":1.97,\"Team\":3,\"X\":1500.47,\"Y\":234.5},{\"JerseyNumber\":1,\"Speed\":0.72,\"Team\":0,\"X\":4567.24,\"Y\":-122.5},{\"JerseyNumber\":13,\"Speed\":3.75,\"Team\":0,\"X\":1827.35,\"Y\":-2453.5},{\"JerseyNumber\":23,\"Speed\":1.6,\"Team\":0,\"X\":1251.905,\"Y\":1524.25},{\"JerseyNumber\":22,\"Speed\":0.98,\"Team\":1,\"X\":-38.59,\"Y\":-1964.375},{\"JerseyNumber\":19,\"Speed\":1.55,\"Team\":1,\"X\":1256.445,\"Y\":813.75},{\"JerseyNumber\":0,\"Speed\":0,\"Team\":4,\"X\":5675,\"Y\":4375},{\"JerseyNumber\":25,\"Speed\":2.25,\"Team\":1,\"X\":-641.275,\"Y\":-956.375},{\"JerseyNumber\":2,\"Speed\":0.34,\"Team\":3,\"X\":-545.935,\"Y\":3416},{\"JerseyNumber\":0,\"Speed\":2.17,\"Team\":-1,\"X\":5151.765,\"Y\":3635.625},{\"JerseyNumber\":4,\"Speed\":1.79,\"Team\":0,\"X\":2432.305,\"Y\":-716.625},{\"JerseyNumber\":97,\"Speed\":4.73,\"Team\":0,\"X\":1712.715,\"Y\":-1004.5},{\"JerseyNumber\":1,\"Speed\":0.79,\"Team\":3,\"X\":2494.73,\"Y\":-3504.375},{\"JerseyNumber\":0,\"Speed\":0,\"Team\":4,\"X\":5675,\"Y\":4375},{\"JerseyNumber\":27,\"Speed\":1.93,\"Team\":0,\"X\":2363.07,\"Y\":1411.375},{\"JerseyNumber\":9,\"Speed\":3.45,\"Team\":0,\"X\":-267.86,\"Y\":-665.875},{\"JerseyNumber\":14,\"Speed\":1.85,\"Team\":0,\"X\":1138.405,\"Y\":854},{\"JerseyNumber\":31,\"Speed\":0.95,\"Team\":1,\"X\":2399.39,\"Y\":801.5},{\"JerseyNumber\":20,\"Speed\":2.08,\"Team\":0,\"X\":691.215,\"Y\":-1695.75},{\"JerseyNumber\":30,\"Speed\":0.58,\"Team\":1,\"X\":-3339.17,\"Y\":9.625},{\"JerseyNumber\":29,\"Speed\":1.68,\"Team\":1,\"X\":904.595,\"Y\":2646.875},{\"JerseyNumber\":7,\"Speed\":2.06,\"Team\":1,\"X\":1176.995,\"Y\":-3118.5},{\"JerseyNumber\":14,\"Speed\":2.44,\"Team\":1,\"X\":517.56,\"Y\":19.25}],\"FrameCount\":2287145,\"Phase\":2,\"GameRunning\":true}]"}
{"kafka.header.matchId":"31dd8827-54e6-40ad-a925-51d45bdfedd3","EXPR$1":"2287146","FrameData":"[{\"BallPosition\":[{\"BallContactInfo\":\"\",\"BallOwningTeam\":\"A\",\"BallStatus\":\"Dead\",\"Speed\":3.2112458641468113,\"X\":59.02,\"Y\":-2059.75,\"Z\":16},{\"BallContactInfo\":\"\",\"BallOwningTeam\":\"A\",\"BallStatus\":\"Dead\",\"Speed\":0,\"X\":0,\"Y\":0,\"Z\":0},{\"BallContactInfo\":\"\",\"BallOwningTeam\":\"A\",\"BallStatus\":\"Dead\",\"Speed\":0,\"X\":0,\"Y\":0,\"Z\":0},{\"BallContactInfo\":\"\",\"BallOwningTeam\":\"A\",\"BallStatus\":\"Dead\",\"Speed\":0,\"X\":0,\"Y\":0,\"Z\":0},{\"BallContactInfo\":\"\",\"BallOwningTeam\":\"A\",\"BallStatus\":\"Dead\",\"Speed\":0,\"X\":0,\"Y\":0,\"Z\":0}],\"PlayerPositions\":[{\"JerseyNumber\":20,\"Speed\":1.1,\"Team\":1,\"X\":2275.675,\"Y\":2179.625},{\"JerseyNumber\":10,\"Speed\":3.25,\"Team\":1,\"X\":2067.97,\"Y\":-1092.875},{\"JerseyNumber\":17,\"Speed\":1.24,\"Team\":1,\"X\":-514.155,\"Y\":751.625},{\"JerseyNumber\":5,\"Speed\":1.76,\"Team\":0,\"X\":2440.25,\"Y\":326.375},{\"JerseyNumber\":91,\"Speed\":2.11,\"Team\":0,\"X\":620.845,\"Y\":-200.375},{\"JerseyNumber\":0,\"Speed\":1.97,\"Team\":3,\"X\":1499.335,\"Y\":228.375},{\"JerseyNumber\":1,\"Speed\":0.71,\"Team\":0,\"X\":4568.375,\"Y\":-121.625},{\"JerseyNumber\":13,\"Speed\":3.69,\"Team\":0,\"X\":1817.135,\"Y\":-2457},{\"JerseyNumber\":23,\"Speed\":1.6,\"Team\":0,\"X\":1253.04,\"Y\":1519},{\"JerseyNumber\":22,\"Speed\":1.22,\"Team\":1,\"X\":-34.05,\"Y\":-1972.25},{\"JerseyNumber\":19,\"Speed\":1.55,\"Team\":1,\"X\":1259.85,\"Y\":809.375},{\"JerseyNumber\":0,\"Speed\":0,\"Team\":4,\"X\":5675,\"Y\":4375},{\"JerseyNumber\":25,\"Speed\":2.2,\"Team\":1,\"X\":-648.085,\"Y\":-957.25},{\"JerseyNumber\":2,\"Speed\":0.34,\"Team\":3,\"X\":-545.935,\"Y\":3416},{\"JerseyNumber\":0,\"Speed\":1.89,\"Team\":-1,\"X\":5152.9,\"Y\":3634.75},{\"JerseyNumber\":4,\"Speed\":1.79,\"Team\":0,\"X\":2434.575,\"Y\":-721.875},{\"JerseyNumber\":97,\"Speed\":4.69,\"Team\":0,\"X\":1720.66,\"Y\":-1017.625},{\"JerseyNumber\":1,\"Speed\":0.79,\"Team\":3,\"X\":2495.865,\"Y\":-3504.375},{\"JerseyNumber\":0,\"Speed\":0,\"Team\":4,\"X\":5675,\"Y\":4375},{\"JerseyNumber\":27,\"Speed\":1.91,\"Team\":0,\"X\":2359.665,\"Y\":1406.125},{\"JerseyNumber\":9,\"Speed\":3.42,\"Team\":0,\"X\":-272.4,\"Y\":-673.75},{\"JerseyNumber\":14,\"Speed\":1.82,\"Team\":0,\"X\":1140.675,\"Y\":849.625},{\"JerseyNumber\":31,\"Speed\":0.92,\"Team\":1,\"X\":2399.39,\"Y\":798.875},{\"JerseyNumber\":20,\"Speed\":2.11,\"Team\":0,\"X\":691.215,\"Y\":-1704.5},{\"JerseyNumber\":30,\"Speed\":0.57,\"Team\":1,\"X\":-3338.035,\"Y\":8.75},{\"JerseyNumber\":29,\"Speed\":1.68,\"Team\":1,\"X\":902.325,\"Y\":2641.625},{\"JerseyNumber\":7,\"Speed\":2.07,\"Team\":1,\"X\":1170.185,\"Y\":-3122},{\"JerseyNumber\":14,\"Speed\":2.47,\"Team\":1,\"X\":511.885,\"Y\":13.125}],\"FrameCount\":2287146,\"Phase\":2,\"GameRunning\":true}]"}
{"kafka.header.matchId":"31dd8827-54e6-40ad-a925-51d45bdfedd3","EXPR$1":"2287147","FrameData":"[{\"BallPosition\":[{\"BallContactInfo\":\"\",\"BallOwningTeam\":\"A\",\"BallStatus\":\"Dead\",\"Speed\":3.1282423179798586,\"X\":63.56,\"Y\":-2066.75,\"Z\":15},{\"BallContactInfo\":\"\",\"BallOwningTeam\":\"A\",\"BallStatus\":\"Dead\",\"Speed\":0,\"X\":0,\"Y\":0,\"Z\":0},{\"BallContactInfo\":\"\",\"BallOwningTeam\":\"A\",\"BallStatus\":\"Dead\",\"Speed\":0,\"X\":0,\"Y\":0,\"Z\":0},{\"BallContactInfo\":\"\",\"BallOwningTeam\":\"A\",\"BallStatus\":\"Dead\",\"Speed\":0,\"X\":0,\"Y\":0,\"Z\":0},{\"BallContactInfo\":\"\",\"BallOwningTeam\":\"A\",\"BallStatus\":\"Dead\",\"Speed\":0,\"X\":0,\"Y\":0,\"Z\":0}],\"PlayerPositions\":[{\"JerseyNumber\":20,\"Speed\":1.1,\"Team\":1,\"X\":2275.675,\"Y\":2176.125},{\"JerseyNumber\":10,\"Speed\":3.17,\"Team\":1,\"X\":2077.05,\"Y\":-1092},{\"JerseyNumber\":17,\"Speed\":1.24,\"Team\":1,\"X\":-513.02,\"Y\":749},{\"JerseyNumber\":5,\"Speed\":1.74,\"Team\":0,\"X\":2443.655,\"Y\":322.875},{\"JerseyNumber\":91,\"Speed\":2.17,\"Team\":0,\"X\":615.17,\"Y\":-205.625},{\"JerseyNumber\":0,\"Speed\":1.94,\"Team\":3,\"X\":1498.2,\"Y\":222.25},{\"JerseyNumber\":1,\"Speed\":0.72,\"Team\":0,\"X\":4570.645,\"Y\":-120.75},{\"JerseyNumber\":13,\"Speed\":3.6,\"Team\":0,\"X\":1806.92,\"Y\":-2460.5},{\"JerseyNumber\":23,\"Speed\":1.57,\"Team\":0,\"X\":1254.175,\"Y\":1514.625},{\"JerseyNumber\":22,\"Speed\":1.49,\"Team\":1,\"X\":-28.375,\"Y\":-1980.125},{\"JerseyNumber\":19,\"Speed\":1.55,\"Team\":1,\"X\":1263.255,\"Y\":805},{\"JerseyNumber\":0,\"Speed\":0,\"Team\":4,\"X\":5675,\"Y\":4375},{\"JerseyNumber\":25,\"Speed\":2.2,\"Team\":1,\"X\":-654.895,\"Y\":-957.25},{\"JerseyNumber\":2,\"Speed\":0.34,\"Team\":3,\"X\":-547.07,\"Y\":3416.875},{\"JerseyNumber\":0,\"Speed\":1.58,\"Team\":-1,\"X\":5152.9,\"Y\":3635.625},{\"JerseyNumber\":4,\"Speed\":1.77,\"Team\":0,\"X\":2435.71,\"Y\":-726.25},{\"JerseyNumber\":97,\"Speed\":4.68,\"Team\":0,\"X\":1729.74,\"Y\":-1029.875},{\"JerseyNumber\":1,\"Speed\":0.79,\"Team\":3,\"X\":2497,\"Y\":-3504.375},{\"JerseyNumber\":0,\"Speed\":0,\"Team\":4,\"X\":5675,\"Y\":4375},{\"JerseyNumber\":27,\"Speed\":1.91,\"Team\":0,\"X\":2357.395,\"Y\":1400.875},{\"JerseyNumber\":9,\"Speed\":3.39,\"Team\":0,\"X\":-278.075,\"Y\":-680.75},{\"JerseyNumber\":14,\"Speed\":1.78,\"Team\":0,\"X\":1142.945,\"Y\":844.375},{\"JerseyNumber\":31,\"Speed\":0.92,\"Team\":1,\"X\":2399.39,\"Y\":796.25},{\"JerseyNumber\":20,\"Speed\":2.14,\"Team\":0,\"X\":692.35,\"Y\":-1712.375},{\"JerseyNumber\":30,\"Speed\":0.57,\"Team\":1,\"X\":-3335.765,\"Y\":7.875},{\"JerseyNumber\":29,\"Speed\":1.68,\"Team\":1,\"X\":900.055,\"Y\":2637.25},{\"JerseyNumber\":7,\"Speed\":2.09,\"Team\":1,\"X\":1164.51,\"Y\":-3126.375},{\"JerseyNumber\":14,\"Speed\":2.47,\"Team\":1,\"X\":506.21,\"Y\":7}],\"FrameCount\":2287147,\"Phase\":2,\"GameRunning\":true}]"}
{"kafka.header.matchId":"31dd8827-54e6-40ad-a925-51d45bdfedd3","EXPR$1":"2287148","FrameData":"[{\"BallPosition\":[{\"BallContactInfo\":\"\",\"BallOwningTeam\":\"A\",\"BallStatus\":\"Dead\",\"Speed\":2.714516531539272,\"X\":69.235,\"Y\":-2074.625,\"Z\":17},{\"BallContactInfo\":\"\",\"BallOwningTeam\":\"A\",\"BallStatus\":\"Dead\",\"Speed\":0,\"X\":0,\"Y\":0,\"Z\":0},{\"BallContactInfo\":\"\",\"BallOwningTeam\":\"A\",\"BallStatus\":\"Dead\",\"Speed\":0,\"X\":0,\"Y\":0,\"Z\":0},{\"BallContactInfo\":\"\",\"BallOwningTeam\":\"A\",\"BallStatus\":\"Dead\",\"Speed\":0,\"X\":0,\"Y\":0,\"Z\":0},{\"BallContactInfo\":\"\",\"BallOwningTeam\":\"A\",\"BallStatus\":\"Dead\",\"Speed\":0,\"X\":0,\"Y\":0,\"Z\":0}],\"PlayerPositions\":[{\"JerseyNumber\":20,\"Speed\":1.09,\"Team\":1,\"X\":2276.81,\"Y\":2173.5},{\"JerseyNumber\":10,\"Speed\":3.12,\"Team\":1,\"X\":2087.265,\"Y\":-1092},{\"JerseyNumber\":17,\"Speed\":1.21,\"Team\":1,\"X\":-513.02,\"Y\":745.5},{\"JerseyNumber\":5,\"Speed\":1.67,\"Team\":0,\"X\":2447.06,\"Y\":320.25},{\"JerseyNumber\":91,\"Speed\":2.22,\"Team\":0,\"X\":610.63,\"Y\":-211.75},{\"JerseyNumber\":0,\"Speed\":1.94,\"Team\":3,\"X\":1498.2,\"Y\":217},{\"JerseyNumber\":1,\"Speed\":0.72,\"Team\":0,\"X\":4571.78,\"Y\":-119.875},{\"JerseyNumber\":13,\"Speed\":3.51,\"Team\":0,\"X\":1796.705,\"Y\":-2464},{\"JerseyNumber\":23,\"Speed\":1.61,\"Team\":0,\"X\":1256.445,\"Y\":1509.375},{\"JerseyNumber\":22,\"Speed\":1.76,\"Team\":1,\"X\":-22.7,\"Y\":-1988.875},{\"JerseyNumber\":19,\"Speed\":1.55,\"Team\":1,\"X\":1267.795,\"Y\":801.5},{\"JerseyNumber\":0,\"Speed\":0,\"Team\":4,\"X\":5675,\"Y\":4375},{\"JerseyNumber\":25,\"Speed\":2.14,\"Team\":1,\"X\":-660.57,\"Y\":-958.125},{\"JerseyNumber\":2,\"Speed\":0.34,\"Team\":3,\"X\":-549.34,\"Y\":3416.875},{\"JerseyNumber\":0,\"Speed\":1.29,\"Team\":-1,\"X\":5152.9,\"Y\":3635.625},{\"JerseyNumber\":4,\"Speed\":1.77,\"Team\":0,\"X\":2437.98,\"Y\":-731.5},{\"JerseyNumber\":97,\"Speed\":4.72,\"Team\":0,\"X\":1738.82,\"Y\":-1043},{\"JerseyNumber\":1,\"Speed\":0.78,\"Team\":3,\"X\":2498.135,\"Y\":-3503.5},{\"JerseyNumber\":0,\"Speed\":0,\"Team\":4,\"X\":5675,\"Y\":4375},{\"JerseyNumber\":27,\"Speed\":1.91,\"Team\":0,\"X\":2353.99,\"Y\":1395.625},{\"JerseyNumber\":9,\"Speed\":3.33,\"Team\":0,\"X\":-284.885,\"Y\":-687.75},{\"JerseyNumber\":14,\"Speed\":1.78,\"Team\":0,\"X\":1145.215,\"Y\":840},{\"JerseyNumber\":31,\"Speed\":0.92,\"Team\":1,\"X\":2400.525,\"Y\":792.75},{\"JerseyNumber\":20,\"Speed\":2.25,\"Team\":0,\"X\":692.35,\"Y\":-1721.125},{\"JerseyNumber\":30,\"Speed\":0.57,\"Team\":1,\"X\":-3334.63,\"Y\":7},{\"JerseyNumber\":29,\"Speed\":1.68,\"Team\":1,\"X\":897.785,\"Y\":2632.875},{\"JerseyNumber\":7,\"Speed\":2.07,\"Team\":1,\"X\":1158.835,\"Y\":-3129.875},{\"JerseyNumber\":14,\"Speed\":2.5,\"Team\":1,\"X\":499.4,\"Y\":0}],\"FrameCount\":2287148,\"Phase\":2,\"GameRunning\":true}]"}
{"kafka.header.matchId":"31dd8827-54e6-40ad-a925-51d45bdfedd3","EXPR$1":"2287149","FrameData":"[{\"BallPosition\":[{\"BallContactInfo\":\"\",\"BallOwningTeam\":\"A\",\"BallStatus\":\"Dead\",\"Speed\":3.1600474679979094,\"X\":74.91,\"Y\":-2084.25,\"Z\":16},{\"BallContactInfo\":\"\",\"BallOwningTeam\":\"A\",\"BallStatus\":\"Dead\",\"Speed\":0,\"X\":0,\"Y\":0,\"Z\":0},{\"BallContactInfo\":\"\",\"BallOwningTeam\":\"A\",\"BallStatus\":\"Dead\",\"Speed\":0,\"X\":0,\"Y\":0,\"Z\":0},{\"BallContactInfo\":\"\",\"BallOwningTeam\":\"A\",\"BallStatus\":\"Dead\",\"Speed\":0,\"X\":0,\"Y\":0,\"Z\":0},{\"BallContactInfo\":\"\",\"BallOwningTeam\":\"A\",\"BallStatus\":\"Dead\",\"Speed\":0,\"X\":0,\"Y\":0,\"Z\":0}],\"PlayerPositions\":[{\"JerseyNumber\":20,\"Speed\":1.1,\"Team\":1,\"X\":2277.945,\"Y\":2170},{\"JerseyNumber\":10,\"Speed\":3.11,\"Team\":1,\"X\":2097.48,\"Y\":-1092},{\"JerseyNumber\":17,\"Speed\":1.21,\"Team\":1,\"X\":-511.885,\"Y\":742},{\"JerseyNumber\":5,\"Speed\":1.63,\"Team\":0,\"X\":2450.465,\"Y\":317.625},{\"JerseyNumber\":91,\"Speed\":2.26,\"Team\":0,\"X\":604.955,\"Y\":-217.875},{\"JerseyNumber\":0,\"Speed\":1.94,\"Team\":3,\"X\":1497.065,\"Y\":210.875},{\"JerseyNumber\":1,\"Speed\":0.72,\"Team\":0,\"X\":4575.185,\"Y\":-120.75},{\"JerseyNumber\":13,\"Speed\":3.46,\"Team\":0,\"X\":1787.625,\"Y\":-2469.25},{\"JerseyNumber\":23,\"Speed\":1.57,\"Team\":0,\"X\":1257.58,\"Y\":1505},{\"JerseyNumber\":22,\"Speed\":1.97,\"Team\":1,\"X\":-15.89,\"Y\":-1998.5},{\"JerseyNumber\":19,\"Speed\":1.58,\"Team\":1,\"X\":1271.2,\"Y\":797.125},{\"JerseyNumber\":0,\"Speed\":0,\"Team\":4,\"X\":5675,\"Y\":4375},{\"JerseyNumber\":25,\"Speed\":2.08,\"Team\":1,\"X\":-666.245,\"Y\":-959},{\"JerseyNumber\":2,\"Speed\":0.25,\"Team\":3,\"X\":-551.61,\"Y\":3417.75},{\"JerseyNumber\":0,\"Speed\":0.78,\"Team\":-1,\"X\":5155.17,\"Y\":3636.5},{\"JerseyNumber\":4,\"Speed\":1.76,\"Team\":0,\"X\":2441.385,\"Y\":-736.75},{\"JerseyNumber\":97,\"Speed\":4.74,\"Team\":0,\"X\":1747.9,\"Y\":-1056.125},{\"JerseyNumber\":1,\"Speed\":0.78,\"Team\":3,\"X\":2499.27,\"Y\":-3503.5},{\"JerseyNumber\":0,\"Speed\":0,\"Team\":4,\"X\":5675,\"Y\":4375},{\"JerseyNumber\":27,\"Speed\":1.89,\"Team\":0,\"X\":2351.72,\"Y\":1390.375},{\"JerseyNumber\":9,\"Speed\":3.33,\"Team\":0,\"X\":-290.56,\"Y\":-696.5},{\"JerseyNumber\":14,\"Speed\":1.81,\"Team\":0,\"X\":1148.62,\"Y\":834.75},{\"JerseyNumber\":31,\"Speed\":0.95,\"Team\":1,\"X\":2400.525,\"Y\":789.25},{\"JerseyNumber\":20,\"Speed\":2.36,\"Team\":0,\"X\":692.35,\"Y\":-1729.875},{\"JerseyNumber\":30,\"Speed\":0.57,\"Team\":1,\"X\":-3333.495,\"Y\":6.125},{\"JerseyNumber\":29,\"Speed\":1.66,\"Team\":1,\"X\":895.515,\"Y\":2628.5},{\"JerseyNumber\":7,\"Speed\":2.08,\"Team\":1,\"X\":1153.16,\"Y\":-3134.25},{\"JerseyNumber\":14,\"Speed\":2.53,\"Team\":1,\"X\":493.725,\"Y\":-7}],\"FrameCount\":2287149,\"Phase\":2,\"GameRunning\":true}]"}
{"kafka.header.matchId":"31dd8827-54e6-40ad-a925-51d45bdfedd3","EXPR$1":"2287150","FrameData":"[{\"BallPosition\":[{\"BallContactInfo\":\"\",\"BallOwningTeam\":\"A\",\"BallStatus\":\"Dead\",\"Speed\":2.890570877871705,\"X\":78.315,\"Y\":-2091.25,\"Z\":16},{\"BallContactInfo\":\"\",\"BallOwningTeam\":\"A\",\"BallStatus\":\"Dead\",\"Speed\":0,\"X\":0,\"Y\":0,\"Z\":0},{\"BallContactInfo\":\"\",\"BallOwningTeam\":\"A\",\"BallStatus\":\"Dead\",\"Speed\":0,\"X\":0,\"Y\":0,\"Z\":0},{\"BallContactInfo\":\"\",\"BallOwningTeam\":\"A\",\"BallStatus\":\"Dead\",\"Speed\":0,\"X\":0,\"Y\":0,\"Z\":0},{\"BallContactInfo\":\"\",\"BallOwningTeam\":\"A\",\"BallStatus\":\"Dead\",\"Speed\":0,\"X\":0,\"Y\":0,\"Z\":0}],\"PlayerPositions\":[{\"JerseyNumber\":20,\"Speed\":1.1,\"Team\":1,\"X\":2280.215,\"Y\":2165.625},{\"JerseyNumber\":10,\"Speed\":3.09,\"Team\":1,\"X\":2106.56,\"Y\":-1092},{\"JerseyNumber\":17,\"Speed\":1.24,\"Team\":1,\"X\":-510.75,\"Y\":737.625},{\"JerseyNumber\":5,\"Speed\":1.61,\"Team\":0,\"X\":2452.735,\"Y\":314.125},{\"JerseyNumber\":91,\"Speed\":2.27,\"Team\":0,\"X\":600.415,\"Y\":-224.875},{\"JerseyNumber\":0,\"Speed\":1.94,\"Team\":3,\"X\":1497.065,\"Y\":205.625},{\"JerseyNumber\":1,\"Speed\":0.71,\"Team\":0,\"X\":4577.455,\"Y\":-121.625},{\"JerseyNumber\":13,\"Speed\":3.39,\"Team\":0,\"X\":1778.545,\"Y\":-2473.625},{\"JerseyNumber\":23,\"Speed\":1.57,\"Team\":0,\"X\":1258.715,\"Y\":1500.625},{\"JerseyNumber\":22,\"Speed\":2.22,\"Team\":1,\"X\":-10.215,\"Y\":-2008.125},{\"JerseyNumber\":19,\"Speed\":1.6,\"Team\":1,\"X\":1274.605,\"Y\":792.75},{\"JerseyNumber\":0,\"Speed\":0,\"Team\":4,\"X\":5675,\"Y\":4375},{\"JerseyNumber\":25,\"Speed\":2.08,\"Team\":1,\"X\":-673.055,\"Y\":-960.75},{\"JerseyNumber\":2,\"Speed\":0.25,\"Team\":3,\"X\":-553.88,\"Y\":3417.75},{\"JerseyNumber\":0,\"Speed\":0.3,\"Team\":-1,\"X\":5159.71,\"Y\":3637.375},{\"JerseyNumber\":4,\"Speed\":1.76,\"Team\":0,\"X\":2443.655,\"Y\":-742},{\"JerseyNumber\":97,\"Speed\":4.76,\"Team\":0,\"X\":1758.115,\"Y\":-1070.125},{\"JerseyNumber\":1,\"Speed\":0.73,\"Team\":3,\"X\":2500.405,\"Y\":-3504.375},{\"JerseyNumber\":0,\"Speed\":0,\"Team\":4,\"X\":5675,\"Y\":4375},{\"JerseyNumber\":27,\"Speed\":1.93,\"Team\":0,\"X\":2349.45,\"Y\":1384.25},{\"JerseyNumber\":9,\"Speed\":3.3,\"Team\":0,\"X\":-297.37,\"Y\":-704.375},{\"JerseyNumber\":14,\"Speed\":1.81,\"Team\":0,\"X\":1150.89,\"Y\":830.375},{\"JerseyNumber\":31,\"Speed\":0.95,\"Team\":1,\"X\":2400.525,\"Y\":786.625},{\"JerseyNumber\":20,\"Speed\":2.48,\"Team\":0,\"X\":693.485,\"Y\":-1739.5},{\"JerseyNumber\":30,\"Speed\":0.54,\"Team\":1,\"X\":-3332.36,\"Y\":5.25},{\"JerseyNumber\":29,\"Speed\":1.68,\"Team\":1,\"X\":892.11,\"Y\":2623.25},{\"JerseyNumber\":7,\"Speed\":2.09,\"Team\":1,\"X\":1147.485,\"Y\":-3137.75},{\"JerseyNumber\":14,\"Speed\":2.56,\"Team\":1,\"X\":488.05,\"Y\":-14.875}],\"FrameCount\":2287150,\"Phase\":2,\"GameRunning\":true}]"}
{"kafka.header.matchId":"31dd8827-54e6-40ad-a925-51d45bdfedd3","EXPR$1":"2287151","FrameData":"[{\"BallPosition\":[{\"BallContactInfo\":\"\",\"BallOwningTeam\":\"A\",\"BallStatus\":\"Dead\",\"Speed\":2.807721496160187,\"X\":83.99,\"Y\":-2100,\"Z\":16},{\"BallContactInfo\":\"\",\"BallOwningTeam\":\"A\",\"BallStatus\":\"Dead\",\"Speed\":0,\"X\":0,\"Y\":0,\"Z\":0},{\"BallContactInfo\":\"\",\"BallOwningTeam\":\"A\",\"BallStatus\":\"Dead\",\"Speed\":0,\"X\":0,\"Y\":0,\"Z\":0},{\"BallContactInfo\":\"\",\"BallOwningTeam\":\"A\",\"BallStatus\":\"Dead\",\"Speed\":0,\"X\":0,\"Y\":0,\"Z\":0},{\"BallContactInfo\":\"\",\"BallOwningTeam\":\"A\",\"BallStatus\":\"Dead\",\"Speed\":0,\"X\":0,\"Y\":0,\"Z\":0}],\"PlayerPositions\":[{\"JerseyNumber\":20,\"Speed\":1.1,\"Team\":1,\"X\":2281.35,\"Y\":2162.125},{\"JerseyNumber\":10,\"Speed\":3.05,\"Team\":1,\"X\":2115.64,\"Y\":-1091.125},{\"JerseyNumber\":17,\"Speed\":1.28,\"Team\":1,\"X\":-509.615,\"Y\":733.25},{\"JerseyNumber\":5,\"Speed\":1.59,\"Team\":0,\"X\":2456.14,\"Y\":311.5},{\"JerseyNumber\":91,\"Speed\":2.31,\"Team\":0,\"X\":595.875,\"Y\":-231.875},{\"JerseyNumber\":0,\"Speed\":1.94,\"Team\":3,\"X\":1497.065,\"Y\":199.5},{\"JerseyNumber\":1,\"Speed\":0.69,\"Team\":0,\"X\":4579.725,\"Y\":-122.5},{\"JerseyNumber\":13,\"Speed\":3.32,\"Team\":0,\"X\":1770.6,\"Y\":-2478},{\"JerseyNumber\":23,\"Speed\":1.57,\"Team\":0,\"X\":1260.985,\"Y\":1495.375},{\"JerseyNumber\":22,\"Speed\":2.36,\"Team\":1,\"X\":-3.405,\"Y\":-2017.75},{\"JerseyNumber\":19,\"Speed\":1.6,\"Team\":1,\"X\":1278.01,\"Y\":788.375},{\"JerseyNumber\":0,\"Speed\":0,\"Team\":4,\"X\":5675,\"Y\":4375},{\"JerseyNumber\":25,\"Speed\":2.03,\"Team\":1,\"X\":-677.595,\"Y\":-963.375},{\"JerseyNumber\":2,\"Speed\":0.12,\"Team\":3,\"X\":-557.285,\"Y\":3418.625},{\"JerseyNumber\":0,\"Speed\":0.04,\"Team\":-1,\"X\":5163.115,\"Y\":3635.625},{\"JerseyNumber\":4,\"Speed\":1.76,\"Team\":0,\"X\":2447.06,\"Y\":-748.125},{\"JerseyNumber\":97,\"Speed\":4.79,\"Team\":0,\"X\":1768.33,\"Y\":-1084.125},{\"JerseyNumber\":1,\"Speed\":0.63,\"Team\":3,\"X\":2501.54,\"Y\":-3505.25},{\"JerseyNumber\":0,\"Speed\":0,\"Team\":4,\"X\":5675,\"Y\":4375},{\"JerseyNumber\":27,\"Speed\":1.93,\"Team\":0,\"X\":2347.18,\"Y\":1378.125},{\"JerseyNumber\":9,\"Speed\":3.33,\"Team\":0,\"X\":-304.18,\"Y\":-714},{\"JerseyNumber\":14,\"Speed\":1.82,\"Team\":0,\"X\":1154.295,\"Y\":825.125},{\"JerseyNumber\":31,\"Speed\":0.98,\"Team\":1,\"X\":2401.66,\"Y\":783.125},{\"JerseyNumber\":20,\"Speed\":2.56,\"Team\":0,\"X\":694.62,\"Y\":-1748.25},{\"JerseyNumber\":30,\"Speed\":0.57,\"Team\":1,\"X\":-3331.225,\"Y\":3.5},{\"JerseyNumber\":29,\"Speed\":1.66,\"Team\":1,\"X\":889.84,\"Y\":2618.875},{\"JerseyNumber\":7,\"Speed\":2.09,\"Team\":1,\"X\":1142.945,\"Y\":-3142.125},{\"JerseyNumber\":14,\"Speed\":2.59,\"Team\":1,\"X\":482.375,\"Y\":-22.75}],\"FrameCount\":2287151,\"Phase\":2,\"GameRunning\":true}]"}
{"kafka.header.matchId":"31dd8827-54e6-40ad-a925-51d45bdfedd3","EXPR$1":"2287152","FrameData":"[{\"BallPosition\":[{\"BallContactInfo\":\"\",\"BallOwningTeam\":\"A\",\"BallStatus\":\"Dead\",\"Speed\":3.0715956765173376,\"X\":89.665,\"Y\":-2108.75,\"Z\":16},{\"BallContactInfo\":\"\",\"BallOwningTeam\":\"A\",\"BallStatus\":\"Dead\",\"Speed\":0,\"X\":0,\"Y\":0,\"Z\":0},{\"BallContactInfo\":\"\",\"BallOwningTeam\":\"A\",\"BallStatus\":\"Dead\",\"Speed\":0,\"X\":0,\"Y\":0,\"Z\":0},{\"BallContactInfo\":\"\",\"BallOwningTeam\":\"A\",\"BallStatus\":\"Dead\",\"Speed\":0,\"X\":0,\"Y\":0,\"Z\":0},{\"BallContactInfo\":\"\",\"BallOwningTeam\":\"A\",\"BallStatus\":\"Dead\",\"Speed\":0,\"X\":0,\"Y\":0,\"Z\":0}],\"PlayerPositions\":[{\"JerseyNumber\":20,\"Speed\":1.1,\"Team\":1,\"X\":2282.485,\"Y\":2158.625},{\"JerseyNumber\":10,\"Speed\":3.01,\"Team\":1,\"X\":2124.72,\"Y\":-1091.125},{\"JerseyNumber\":17,\"Speed\":1.26,\"Team\":1,\"X\":-509.615,\"Y\":728.875},{\"JerseyNumber\":5,\"Speed\":1.51,\"Team\":0,\"X\":2458.41,\"Y\":308},{\"JerseyNumber\":91,\"Speed\":2.33,\"Team\":0,\"X\":591.335,\"Y\":-238},{\"JerseyNumber\":0,\"Speed\":1.91,\"Team\":3,\"X\":1495.93,\"Y\":195.125},{\"JerseyNumber\":1,\"Speed\":0.69,\"Team\":0,\"X\":4583.13,\"Y\":-123.375},{\"JerseyNumber\":13,\"Speed\":3.27,\"Team\":0,\"X\":1761.52,\"Y\":-2482.375},{\"JerseyNumber\":23,\"Speed\":1.54,\"Team\":0,\"X\":1262.12,\"Y\":1491},{\"JerseyNumber\":22,\"Speed\":2.51,\"Team\":1,\"X\":2.27,\"Y\":-2025.625},{\"JerseyNumber\":19,\"Speed\":1.63,\"Team\":1,\"X\":1282.55,\"Y\":784},{\"JerseyNumber\":0,\"Speed\":0,\"Team\":4,\"X\":5675,\"Y\":4375},{\"JerseyNumber\":25,\"Speed\":2.03,\"Team\":1,\"X\":-684.405,\"Y\":-966},{\"JerseyNumber\":2,\"Speed\":0.09,\"Team\":3,\"X\":-560.69,\"Y\":3419.5},{\"JerseyNumber\":0,\"Speed\":0.04,\"Team\":-1,\"X\":5165.385,\"Y\":3634.75},{\"JerseyNumber\":4,\"Speed\":1.79,\"Team\":0,\"X\":2449.33,\"Y\":-755.125},{\"JerseyNumber\":97,\"Speed\":4.81,\"Team\":0,\"X\":1778.545,\"Y\":-1097.25},{\"JerseyNumber\":1,\"Speed\":0.59,\"Team\":3,\"X\":2502.675,\"Y\":-3505.25},{\"JerseyNumber\":0,\"Speed\":0,\"Team\":4,\"X\":5675,\"Y\":4375},{\"JerseyNumber\":27,\"Speed\":1.89,\"Team\":0,\"X\":2346.045,\"Y\":1372.875},{\"JerseyNumber\":9,\"Speed\":3.3,\"Team\":0,\"X\":-310.99,\"Y\":-722.75},{\"JerseyNumber\":14,\"Speed\":1.8,\"Team\":0,\"X\":1157.7,\"Y\":820.75},{\"JerseyNumber\":31,\"Speed\":0.98,\"Team\":1,\"X\":2401.66,\"Y\":779.625},{\"JerseyNumber\":20,\"Speed\":2.63,\"Team\":0,\"X\":694.62,\"Y\":-1757.875},{\"JerseyNumber\":30,\"Speed\":0.54,\"Team\":1,\"X\":-3330.09,\"Y\":2.625},{\"JerseyNumber\":29,\"Speed\":1.68,\"Team\":1,\"X\":887.57,\"Y\":2613.625},{\"JerseyNumber\":7,\"Speed\":2.1,\"Team\":1,\"X\":1137.27,\"Y\":-3146.5},{\"JerseyNumber\":14,\"Speed\":2.65,\"Team\":1,\"X\":475.565,\"Y\":-30.625}],\"FrameCount\":2287152,\"Phase\":2,\"GameRunning\":true}]"}
{"kafka.header.matchId":"31dd8827-54e6-40ad-a925-51d45bdfedd3","EXPR$1":"2287153","FrameData":"[{\"BallPosition\":[{\"BallContactInfo\":\"\",\"BallOwningTeam\":\"A\",\"BallStatus\":\"Dead\",\"Speed\":2.8019457525084244,\"X\":95.34,\"Y\":-2114.875,\"Z\":16},{\"BallContactInfo\":\"\",\"BallOwningTeam\":\"A\",\"BallStatus\":\"Dead\",\"Speed\":0,\"X\":0,\"Y\":0,\"Z\":0},{\"BallContactInfo\":\"\",\"BallOwningTeam\":\"A\",\"BallStatus\":\"Dead\",\"Speed\":0,\"X\":0,\"Y\":0,\"Z\":0},{\"BallContactInfo\":\"\",\"BallOwningTeam\":\"A\",\"BallStatus\":\"Dead\",\"Speed\":0,\"X\":0,\"Y\":0,\"Z\":0},{\"BallContactInfo\":\"\",\"BallOwningTeam\":\"A\",\"BallStatus\":\"Dead\",\"Speed\":0,\"X\":0,\"Y\":0,\"Z\":0}],\"PlayerPositions\":[{\"JerseyNumber\":20,\"Speed\":1.1,\"Team\":1,\"X\":2283.62,\"Y\":2155.125},{\"JerseyNumber\":10,\"Speed\":2.94,\"Team\":1,\"X\":2133.8,\"Y\":-1089.375},{\"JerseyNumber\":17,\"Speed\":1.26,\"Team\":1,\"X\":-508.48,\"Y\":724.5},{\"JerseyNumber\":5,\"Speed\":1.46,\"Team\":0,\"X\":2460.68,\"Y\":304.5},{\"JerseyNumber\":91,\"Speed\":2.36,\"Team\":0,\"X\":585.66,\"Y\":-244.125},{\"JerseyNumber\":0,\"Speed\":1.86,\"Team\":3,\"X\":1495.93,\"Y\":189.875},{\"JerseyNumber\":1,\"Speed\":0.68,\"Team\":0,\"X\":4585.4,\"Y\":-124.25},{\"JerseyNumber\":13,\"Speed\":3.22,\"Team\":0,\"X\":1753.575,\"Y\":-2486.75},{\"JerseyNumber\":23,\"Speed\":1.5,\"Team\":0,\"X\":1263.255,\"Y\":1486.625},{\"JerseyNumber\":22,\"Speed\":2.65,\"Team\":1,\"X\":9.08,\"Y\":-2033.5},{\"JerseyNumber\":19,\"Speed\":1.63,\"Team\":1,\"X\":1285.955,\"Y\":779.625},{\"JerseyNumber\":0,\"Speed\":0,\"Team\":4,\"X\":5675,\"Y\":4375},{\"JerseyNumber\":25,\"Speed\":1.98,\"Team\":1,\"X\":-690.08,\"Y\":-967.75},{\"JerseyNumber\":2,\"Speed\":0.09,\"Team\":3,\"X\":-564.095,\"Y\":3420.375},{\"JerseyNumber\":0,\"Speed\":0.3,\"Team\":-1,\"X\":5167.655,\"Y\":3633.875},{\"JerseyNumber\":4,\"Speed\":1.79,\"Team\":0,\"X\":2452.735,\"Y\":-761.25},{\"JerseyNumber\":97,\"Speed\":4.81,\"Team\":0,\"X\":1787.625,\"Y\":-1109.5},{\"JerseyNumber\":1,\"Speed\":0.54,\"Team\":3,\"X\":2504.945,\"Y\":-3505.25},{\"JerseyNumber\":0,\"Speed\":0,\"Team\":4,\"X\":5675,\"Y\":4375},{\"JerseyNumber\":27,\"Speed\":1.87,\"Team\":0,\"X\":2344.91,\"Y\":1366.75},{\"JerseyNumber\":9,\"Speed\":3.24,\"Team\":0,\"X\":-317.8,\"Y\":-729.75},{\"JerseyNumber\":14,\"Speed\":1.77,\"Team\":0,\"X\":1161.105,\"Y\":817.25},{\"JerseyNumber\":31,\"Speed\":0.98,\"Team\":1,\"X\":2401.66,\"Y\":776.125},{\"JerseyNumber\":20,\"Speed\":2.7,\"Team\":0,\"X\":694.62,\"Y\":-1767.5},{\"JerseyNumber\":30,\"Speed\":0.51,\"Team\":1,\"X\":-3328.955,\"Y\":1.75},{\"JerseyNumber\":29,\"Speed\":1.64,\"Team\":1,\"X\":885.3,\"Y\":2609.25},{\"JerseyNumber\":7,\"Speed\":2.12,\"Team\":1,\"X\":1131.595,\"Y\":-3150.875},{\"JerseyNumber\":14,\"Speed\":2.7,\"Team\":1,\"X\":469.89,\"Y\":-38.5}],\"FrameCount\":2287153,\"Phase\":2,\"GameRunning\":true}]"}
{"kafka.header.matchId":"31dd8827-54e6-40ad-a925-51d45bdfedd3","EXPR$1":"2287154","FrameData":"[{\"BallPosition\":[{\"BallContactInfo\":\"\",\"BallOwningTeam\":\"A\",\"BallStatus\":\"Dead\",\"Speed\":2.8363004072206457,\"X\":101.015,\"Y\":-2123.625,\"Z\":15},{\"BallContactInfo\":\"\",\"BallOwningTeam\":\"A\",\"BallStatus\":\"Dead\",\"Speed\":0,\"X\":0,\"Y\":0,\"Z\":0},{\"BallContactInfo\":\"\",\"BallOwningTeam\":\"A\",\"BallStatus\":\"Dead\",\"Speed\":0,\"X\":0,\"Y\":0,\"Z\":0},{\"BallContactInfo\":\"\",\"BallOwningTeam\":\"A\",\"BallStatus\":\"Dead\",\"Speed\":0,\"X\":0,\"Y\":0,\"Z\":0},{\"BallContactInfo\":\"\",\"BallOwningTeam\":\"A\",\"BallStatus\":\"Dead\",\"Speed\":0,\"X\":0,\"Y\":0,\"Z\":0}],\"PlayerPositions\":[{\"JerseyNumber\":20,\"Speed\":1.1,\"Team\":1,\"X\":2284.755,\"Y\":2151.625},{\"JerseyNumber\":10,\"Speed\":2.92,\"Team\":1,\"X\":2141.745,\"Y\":-1087.625},{\"JerseyNumber\":17,\"Speed\":1.23,\"Team\":1,\"X\":-507.345,\"Y\":721},{\"JerseyNumber\":5,\"Speed\":1.4,\"Team\":0,\"X\":2462.95,\"Y\":301.875},{\"JerseyNumber\":91,\"Speed\":2.38,\"Team\":0,\"X\":581.12,\"Y\":-251.125},{\"JerseyNumber\":0,\"Speed\":1.82,\"Team\":3,\"X\":1495.93,\"Y\":184.625},{\"JerseyNumber\":1,\"Speed\":0.68,\"Team\":0,\"X\":4586.535,\"Y\":-124.25},{\"JerseyNumber\":13,\"Speed\":3.19,\"Team\":0,\"X\":1745.63,\"Y\":-2490.25},{\"JerseyNumber\":23,\"Speed\":1.47,\"Team\":0,\"X\":1265.525,\"Y\":1483.125},{\"JerseyNumber\":22,\"Speed\":2.8,\"Team\":1,\"X\":15.89,\"Y\":-2043.125},{\"JerseyNumber\":19,\"Speed\":1.66,\"Team\":1,\"X\":1289.36,\"Y\":775.25},{\"JerseyNumber\":0,\"Speed\":0,\"Team\":4,\"X\":5675,\"Y\":4375},{\"JerseyNumber\":25,\"Speed\":1.98,\"Team\":1,\"X\":-696.89,\"Y\":-970.375},{\"JerseyNumber\":2,\"Speed\":0.22,\"Team\":3,\"X\":-568.635,\"Y\":3422.125},{\"JerseyNumber\":0,\"Speed\":0.2,\"Team\":-1,\"X\":5171.06,\"Y\":3634.75},{\"JerseyNumber\":4,\"Speed\":1.85,\"Team\":0,\"X\":2456.14,\"Y\":-768.25},{\"JerseyNumber\":97,\"Speed\":4.81,\"Team\":0,\"X\":1796.705,\"Y\":-1120.875},{\"JerseyNumber\":1,\"Speed\":0.54,\"Team\":3,\"X\":2507.215,\"Y\":-3505.25},{\"JerseyNumber\":0,\"Speed\":0,\"Team\":4,\"X\":5675,\"Y\":4375},{\"JerseyNumber\":27,\"Speed\":1.84,\"Team\":0,\"X\":2343.775,\"Y\":1361.5},{\"JerseyNumber\":9,\"Speed\":3.18,\"Team\":0,\"X\":-323.475,\"Y\":-736.75},{\"JerseyNumber\":14,\"Speed\":1.74,\"Team\":0,\"X\":1164.51,\"Y\":812.875},{\"JerseyNumber\":31,\"Speed\":0.98,\"Team\":1,\"X\":2400.525,\"Y\":774.375},{\"JerseyNumber\":20,\"Speed\":2.74,\"Team\":0,\"X\":693.485,\"Y\":-1778},{\"JerseyNumber\":30,\"Speed\":0.48,\"Team\":1,\"X\":-3328.955,\"Y\":0.875},{\"JerseyNumber\":29,\"Speed\":1.63,\"Team\":1,\"X\":881.895,\"Y\":2604.875},{\"JerseyNumber\":7,\"Speed\":2.1,\"Team\":1,\"X\":1127.055,\"Y\":-3154.375},{\"JerseyNumber\":14,\"Speed\":2.76,\"Team\":1,\"X\":463.08,\"Y\":-45.5}],\"FrameCount\":2287154,\"Phase\":2,\"GameRunning\":true}]"}
{"kafka.header.matchId":"31dd8827-54e6-40ad-a925-51d45bdfedd3","EXPR$1":"2287155","FrameData":"[{\"BallPosition\":[{\"BallContactInfo\":\"\",\"BallOwningTeam\":\"A\",\"BallStatus\":\"Dead\",\"Speed\":2.84905247406923,\"X\":105.555,\"Y\":-2130.625,\"Z\":15},{\"BallContactInfo\":\"\",\"BallOwningTeam\":\"A\",\"BallStatus\":\"Dead\",\"Speed\":0,\"X\":0,\"Y\":0,\"Z\":0},{\"BallContactInfo\":\"\",\"BallOwningTeam\":\"A\",\"BallStatus\":\"Dead\",\"Speed\":0,\"X\":0,\"Y\":0,\"Z\":0},{\"BallContactInfo\":\"\",\"BallOwningTeam\":\"A\",\"BallStatus\":\"Dead\",\"Speed\":0,\"X\":0,\"Y\":0,\"Z\":0},{\"BallContactInfo\":\"\",\"BallOwningTeam\":\"A\",\"BallStatus\":\"Dead\",\"Speed\":0,\"X\":0,\"Y\":0,\"Z\":0}],\"PlayerPositions\":[{\"JerseyNumber\":20,\"Speed\":1.1,\"Team\":1,\"X\":2285.89,\"Y\":2148.125},{\"JerseyNumber\":10,\"Speed\":2.87,\"Team\":1,\"X\":2149.69,\"Y\":-1085.875},{\"JerseyNumber\":17,\"Speed\":1.19,\"Team\":1,\"X\":-507.345,\"Y\":717.5},{\"JerseyNumber\":5,\"Speed\":1.36,\"Team\":0,\"X\":2465.22,\"Y\":298.375},{\"JerseyNumber\":91,\"Speed\":2.38,\"Team\":0,\"X\":576.58,\"Y\":-257.25},{\"JerseyNumber\":0,\"Speed\":1.77,\"Team\":3,\"X\":1495.93,\"Y\":180.25},{\"JerseyNumber\":1,\"Speed\":0.68,\"Team\":0,\"X\":4588.805,\"Y\":-124.25},{\"JerseyNumber\":13,\"Speed\":3.16,\"Team\":0,\"X\":1737.685,\"Y\":-2494.625},{\"JerseyNumber\":23,\"Speed\":1.5,\"Team\":0,\"X\":1266.66,\"Y\":1477.875},{\"JerseyNumber\":22,\"Speed\":2.94,\"Team\":1,\"X\":22.7,\"Y\":-2051.875},{\"JerseyNumber\":19,\"Speed\":1.66,\"Team\":1,\"X\":1292.765,\"Y\":771.75},{\"JerseyNumber\":0,\"Speed\":0,\"Team\":4,\"X\":5675,\"Y\":4375},{\"JerseyNumber\":25,\"Speed\":1.93,\"Team\":1,\"X\":-702.565,\"Y\":-972.125},{\"JerseyNumber\":2,\"Speed\":0.41,\"Team\":3,\"X\":-573.175,\"Y\":3423},{\"JerseyNumber\":0,\"Speed\":0.54,\"Team\":-1,\"X\":5173.33,\"Y\":3633.875},{\"JerseyNumber\":4,\"Speed\":1.88,\"Team\":0,\"X\":2459.545,\"Y\":-775.25},{\"JerseyNumber\":97,\"Speed\":4.8,\"Team\":0,\"X\":1806.92,\"Y\":-1133.125},{\"JerseyNumber\":1,\"Speed\":0.49,\"Team\":3,\"X\":2508.35,\"Y\":-3504.375},{\"JerseyNumber\":0,\"Speed\":0,\"Team\":4,\"X\":5675,\"Y\":4375},{\"JerseyNumber\":27,\"Speed\":1.8,\"Team\":0,\"X\":2343.775,\"Y\":1355.375},{\"JerseyNumber\":9,\"Speed\":3.15,\"Team\":0,\"X\":-329.15,\"Y\":-745.5},{\"JerseyNumber\":14,\"Speed\":1.7,\"Team\":0,\"X\":1167.915,\"Y\":808.5},{\"JerseyNumber\":31,\"Speed\":0.98,\"Team\":1,\"X\":2400.525,\"Y\":770.875},{\"JerseyNumber\":20,\"Speed\":2.78,\"Team\":0,\"X\":693.485,\"Y\":-1788.5},{\"JerseyNumber\":30,\"Speed\":0.48,\"Team\":1,\"X\":-3327.82,\"Y\":0.875},{\"JerseyNumber\":29,\"Speed\":1.61,\"Team\":1,\"X\":880.76,\"Y\":2599.625},{\"JerseyNumber\":7,\"Speed\":2.1,\"Team\":1,\"X\":1121.38,\"Y\":-3157.875},{\"JerseyNumber\":14,\"Speed\":2.82,\"Team\":1,\"X\":457.405,\"Y\":-54.25}],\"FrameCount\":2287155,\"Phase\":2,\"GameRunning\":true}]"}
{"kafka.header.matchId":"31dd8827-54e6-40ad-a925-51d45bdfedd3","EXPR$1":"2287156","FrameData":"[{\"BallPosition\":[{\"BallContactInfo\":\"\",\"BallOwningTeam\":\"A\",\"BallStatus\":\"Dead\",\"Speed\":2.7991784509030504,\"X\":110.095,\"Y\":-2139.375,\"Z\":16},{\"BallContactInfo\":\"\",\"BallOwningTeam\":\"A\",\"BallStatus\":\"Dead\",\"Speed\":0,\"X\":0,\"Y\":0,\"Z\":0},{\"BallContactInfo\":\"\",\"BallOwningTeam\":\"A\",\"BallStatus\":\"Dead\",\"Speed\":0,\"X\":0,\"Y\":0,\"Z\":0},{\"BallContactInfo\":\"\",\"BallOwningTeam\":\"A\",\"BallStatus\":\"Dead\",\"Speed\":0,\"X\":0,\"Y\":0,\"Z\":0},{\"BallContactInfo\":\"\",\"BallOwningTeam\":\"A\",\"BallStatus\":\"Dead\",\"Speed\":0,\"X\":0,\"Y\":0,\"Z\":0}],\"PlayerPositions\":[{\"JerseyNumber\":20,\"Speed\":1.1,\"Team\":1,\"X\":2287.025,\"Y\":2145.5},{\"JerseyNumber\":10,\"Speed\":2.87,\"Team\":1,\"X\":2157.635,\"Y\":-1084.125},{\"JerseyNumber\":17,\"Speed\":1.19,\"Team\":1,\"X\":-506.21,\"Y\":714.875},{\"JerseyNumber\":5,\"Speed\":1.32,\"Team\":0,\"X\":2466.355,\"Y\":294.875},{\"JerseyNumber\":91,\"Speed\":2.41,\"Team\":0,\"X\":573.175,\"Y\":-265.125},{\"JerseyNumber\":0,\"Speed\":1.73,\"Team\":3,\"X\":1495.93,\"Y\":175.875},{\"JerseyNumber\":1,\"Speed\":0.68,\"Team\":0,\"X\":4591.075,\"Y\":-125.125},{\"JerseyNumber\":13,\"Speed\":3.08,\"Team\":0,\"X\":1729.74,\"Y\":-2498.125},{\"JerseyNumber\":23,\"Speed\":1.5,\"Team\":0,\"X\":1267.795,\"Y\":1473.5},{\"JerseyNumber\":22,\"Speed\":3.06,\"Team\":1,\"X\":30.645,\"Y\":-2062.375},{\"JerseyNumber\":19,\"Speed\":1.66,\"Team\":1,\"X\":1296.17,\"Y\":767.375},{\"JerseyNumber\":0,\"Speed\":0,\"Team\":4,\"X\":5675,\"Y\":4375},{\"JerseyNumber\":25,\"Speed\":1.93,\"Team\":1,\"X\":-709.375,\"Y\":-975.625},{\"JerseyNumber\":2,\"Speed\":0.6,\"Team\":3,\"X\":-578.85,\"Y\":3423.875},{\"JerseyNumber\":0,\"Speed\":0.49,\"Team\":-1,\"X\":5175.6,\"Y\":3633.875},{\"JerseyNumber\":4,\"Speed\":1.9,\"Team\":0,\"X\":2464.085,\"Y\":-781.375},{\"JerseyNumber\":97,\"Speed\":4.77,\"Team\":0,\"X\":1816,\"Y\":-1143.625},{\"JerseyNumber\":1,\"Speed\":0.49,\"Team\":3,\"X\":2510.62,\"Y\":-3505.25},{\"JerseyNumber\":0,\"Speed\":0,\"Team\":4,\"X\":5675,\"Y\":4375},{\"JerseyNumber\":27,\"Speed\":1.8,\"Team\":0,\"X\":2343.775,\"Y\":1350.125},{\"JerseyNumber\":9,\"Speed\":3.09,\"Team\":0,\"X\":-334.825,\"Y\":-752.5},{\"JerseyNumber\":14,\"Speed\":1.71,\"Team\":0,\"X\":1171.32,\"Y\":803.25},{\"JerseyNumber\":31,\"Speed\":1.01,\"Team\":1,\"X\":2400.525,\"Y\":767.375},{\"JerseyNumber\":20,\"Speed\":2.82,\"Team\":0,\"X\":693.485,\"Y\":-1799.875},{\"JerseyNumber\":30,\"Speed\":0.48,\"Team\":1,\"X\":-3327.82,\"Y\":0},{\"JerseyNumber\":29,\"Speed\":1.59,\"Team\":1,\"X\":877.355,\"Y\":2595.25},{\"JerseyNumber\":7,\"Speed\":2.1,\"Team\":1,\"X\":1115.705,\"Y\":-3162.25},{\"JerseyNumber\":14,\"Speed\":2.85,\"Team\":1,\"X\":450.595,\"Y\":-62.125}],\"FrameCount\":2287156,\"Phase\":2,\"GameRunning\":true}]"}
{"kafka.header.matchId":"31dd8827-54e6-40ad-a925-51d45bdfedd3","EXPR$1":"2287157","FrameData":"[{\"BallPosition\":[{\"BallContactInfo\":\"\",\"BallOwningTeam\":\"A\",\"BallStatus\":\"Dead\",\"Speed\":2.9053571209061375,\"X\":116.905,\"Y\":-2147.25,\"Z\":14},{\"BallContactInfo\":\"\",\"BallOwningTeam\":\"A\",\"BallStatus\":\"Dead\",\"Speed\":0,\"X\":0,\"Y\":0,\"Z\":0},{\"BallContactInfo\":\"\",\"BallOwningTeam\":\"A\",\"BallStatus\":\"Dead\",\"Speed\":0,\"X\":0,\"Y\":0,\"Z\":0},{\"BallContactInfo\":\"\",\"BallOwningTeam\":\"A\",\"BallStatus\":\"Dead\",\"Speed\":0,\"X\":0,\"Y\":0,\"Z\":0},{\"BallContactInfo\":\"\",\"BallOwningTeam\":\"A\",\"BallStatus\":\"Dead\",\"Speed\":0,\"X\":0,\"Y\":0,\"Z\":0}],\"PlayerPositions\":[{\"JerseyNumber\":20,\"Speed\":1.1,\"Team\":1,\"X\":2288.16,\"Y\":2141.125},{\"JerseyNumber\":10,\"Speed\":2.83,\"Team\":1,\"X\":2165.58,\"Y\":-1083.25},{\"JerseyNumber\":17,\"Speed\":1.2,\"Team\":1,\"X\":-506.21,\"Y\":710.5},{\"JerseyNumber\":5,\"Speed\":1.28,\"Team\":0,\"X\":2467.49,\"Y\":290.5},{\"JerseyNumber\":91,\"Speed\":2.44,\"Team\":0,\"X\":568.635,\"Y\":-273},{\"JerseyNumber\":0,\"Speed\":1.69,\"Team\":3,\"X\":1495.93,\"Y\":170.625},{\"JerseyNumber\":1,\"Speed\":0.69,\"Team\":0,\"X\":4593.345,\"Y\":-126.875},{\"JerseyNumber\":13,\"Speed\":3.01,\"Team\":0,\"X\":1721.795,\"Y\":-2502.5},{\"JerseyNumber\":23,\"Speed\":1.48,\"Team\":0,\"X\":1270.065,\"Y\":1469.125},{\"JerseyNumber\":22,\"Speed\":3.18,\"Team\":1,\"X\":38.59,\"Y\":-2073.75},{\"JerseyNumber\":19,\"Speed\":1.66,\"Team\":1,\"X\":1299.575,\"Y\":763},{\"JerseyNumber\":0,\"Speed\":0,\"Team\":4,\"X\":5675,\"Y\":4375},{\"JerseyNumber\":25,\"Speed\":1.91,\"Team\":1,\"X\":-715.05,\"Y\":-979.125},{\"JerseyNumber\":2,\"Speed\":0.8,\"Team\":3,\"X\":-583.39,\"Y\":3423.875},{\"JerseyNumber\":0,\"Speed\":0.36,\"Team\":-1,\"X\":5176.735,\"Y\":3633},{\"JerseyNumber\":4,\"Speed\":1.97,\"Team\":0,\"X\":2468.625,\"Y\":-789.25},{\"JerseyNumber\":97,\"Speed\":4.73,\"Team\":0,\"X\":1825.08,\"Y\":-1155},{\"JerseyNumber\":1,\"Speed\":0.49,\"Team\":3,\"X\":2512.89,\"Y\":-3505.25},{\"JerseyNumber\":0,\"Speed\":0,\"Team\":4,\"X\":5675,\"Y\":4375},{\"JerseyNumber\":27,\"Speed\":1.8,\"Team\":0,\"X\":2344.91,\"Y\":1343.125},{\"JerseyNumber\":9,\"Speed\":3.03,\"Team\":0,\"X\":-340.5,\"Y\":-760.375},{\"JerseyNumber\":14,\"Speed\":1.7,\"Team\":0,\"X\":1174.725,\"Y\":798.875},{\"JerseyNumber\":31,\"Speed\":1.01,\"Team\":1,\"X\":2400.525,\"Y\":763.875},{\"JerseyNumber\":20,\"Speed\":2.82,\"Team\":0,\"X\":693.485,\"Y\":-1811.25},{\"JerseyNumber\":30,\"Speed\":0.45,\"Team\":1,\"X\":-3327.82,\"Y\":-1.75},{\"JerseyNumber\":29,\"Speed\":1.59,\"Team\":1,\"X\":876.22,\"Y\":2590},{\"JerseyNumber\":7,\"Speed\":2.1,\"Team\":1,\"X\":1110.03,\"Y\":-3166.625},{\"JerseyNumber\":14,\"Speed\":2.88,\"Team\":1,\"X\":444.92,\"Y\":-70.875}],\"FrameCount\":2287157,\"Phase\":2,\"GameRunning\":true}]"}
{"kafka.header.matchId":"31dd8827-54e6-40ad-a925-51d45bdfedd3","EXPR$1":"2287158","FrameData":"[{\"BallPosition\":[{\"BallContactInfo\":\"\",\"BallOwningTeam\":\"A\",\"BallStatus\":\"Dead\",\"Speed\":2.6422149798984944,\"X\":119.175,\"Y\":-2154.25,\"Z\":15},{\"BallContactInfo\":\"\",\"BallOwningTeam\":\"A\",\"BallStatus\":\"Dead\",\"Speed\":0,\"X\":0,\"Y\":0,\"Z\":0},{\"BallContactInfo\":\"\",\"BallOwningTeam\":\"A\",\"BallStatus\":\"Dead\",\"Speed\":0,\"X\":0,\"Y\":0,\"Z\":0},{\"BallContactInfo\":\"\",\"BallOwningTeam\":\"A\",\"BallStatus\":\"Dead\",\"Speed\":0,\"X\":0,\"Y\":0,\"Z\":0},{\"BallContactInfo\":\"\",\"BallOwningTeam\":\"A\",\"BallStatus\":\"Dead\",\"Speed\":0,\"X\":0,\"Y\":0,\"Z\":0}],\"PlayerPositions\":[{\"JerseyNumber\":20,\"Speed\":1.1,\"Team\":1,\"X\":2289.295,\"Y\":2137.625},{\"JerseyNumber\":10,\"Speed\":2.73,\"Team\":1,\"X\":2172.39,\"Y\":-1081.5},{\"JerseyNumber\":17,\"Speed\":1.18,\"Team\":1,\"X\":-506.21,\"Y\":707},{\"JerseyNumber\":5,\"Speed\":1.25,\"Team\":0,\"X\":2469.76,\"Y\":287},{\"JerseyNumber\":91,\"Speed\":2.47,\"Team\":0,\"X\":565.23,\"Y\":-281.75},{\"JerseyNumber\":0,\"Speed\":1.65,\"Team\":3,\"X\":1495.93,\"Y\":165.375},{\"JerseyNumber\":1,\"Speed\":0.68,\"Team\":0,\"X\":4596.75,\"Y\":-127.75},{\"JerseyNumber\":13,\"Speed\":2.95,\"Team\":0,\"X\":1713.85,\"Y\":-2507.75},{\"JerseyNumber\":23,\"Speed\":1.45,\"Team\":0,\"X\":1272.335,\"Y\":1464.75},{\"JerseyNumber\":22,\"Speed\":3.27,\"Team\":1,\"X\":46.535,\"Y\":-2086},{\"JerseyNumber\":19,\"Speed\":1.66,\"Team\":1,\"X\":1302.98,\"Y\":758.625},{\"JerseyNumber\":0,\"Speed\":0,\"Team\":4,\"X\":5675,\"Y\":4375},{\"JerseyNumber\":25,\"Speed\":1.93,\"Team\":1,\"X\":-720.725,\"Y\":-982.625},{\"JerseyNumber\":2,\"Speed\":0.94,\"Team\":3,\"X\":-587.93,\"Y\":3423.875},{\"JerseyNumber\":0,\"Speed\":0.41,\"Team\":-1,\"X\":5176.735,\"Y\":3631.25},{\"JerseyNumber\":4,\"Speed\":2.05,\"Team\":0,\"X\":2474.3,\"Y\":-796.25},{\"JerseyNumber\":97,\"Speed\":4.7,\"Team\":0,\"X\":1834.16,\"Y\":-1165.5},{\"JerseyNumber\":1,\"Speed\":0.49,\"Team\":3,\"X\":2516.295,\"Y\":-3505.25},{\"JerseyNumber\":0,\"Speed\":0,\"Team\":4,\"X\":5675,\"Y\":4375},{\"JerseyNumber\":27,\"Speed\":1.84,\"Team\":0,\"X\":2346.045,\"Y\":1336.125},{\"JerseyNumber\":9,\"Speed\":2.97,\"Team\":0,\"X\":-346.175,\"Y\":-767.375},{\"JerseyNumber\":14,\"Speed\":1.7,\"Team\":0,\"X\":1179.265,\"Y\":794.5},{\"JerseyNumber\":31,\"Speed\":1.01,\"Team\":1,\"X\":2400.525,\"Y\":760.375},{\"JerseyNumber\":20,\"Speed\":2.86,\"Team\":0,\"X\":694.62,\"Y\":-1822.625},{\"JerseyNumber\":30,\"Speed\":0.42,\"Team\":1,\"X\":-3327.82,\"Y\":-2.625},{\"JerseyNumber\":29,\"Speed\":1.56,\"Team\":1,\"X\":875.085,\"Y\":2585.625},{\"JerseyNumber\":7,\"Speed\":2.1,\"Team\":1,\"X\":1104.355,\"Y\":-3171},{\"JerseyNumber\":14,\"Speed\":2.94,\"Team\":1,\"X\":438.11,\"Y\":-79.625}],\"FrameCount\":2287158,\"Phase\":2,\"GameRunning\":true}]"}
